cc_num,name,lat,long
100000000000000,Ofelia Blanda,28.893450162744532,-72.32399522510866
100000000000001,Anissa Hilll,45.23151383067707,-117.8077346982309
100000000000002,Braden Bernhard,38.823685319973166,-116.93990938691827
100000000000003,Madeline Schoen,34.8446319316965,-114.74764916324884
100000000000004,Darrion Greenfelder,42.547677413649254,-114.10859844345484
100000000000005,Eliezer Pfeffer,27.811215795827344,-105.85575956193628
100000000000006,Eula Steuber,40.903683188087136,-122.63273230274824
100000000000007,Amara Flatley,31.22701395268495,-87.14000346028249
100000000000008,Melvin Renner,32.96279524593966,-102.77839489531549
100000000000009,Violet Ebert,27.55366454786476,-116.1885717592824
100000000000010,Lilla Haag,45.37991683433742,-107.3182973453853
100000000000011,Jaylan Volkman,34.7408607104845,-108.32308813879712
100000000000012,Dessie Turner,39.93546308343433,-123.17905646575092
100000000000013,Toney Kilback,35.24003124999219,-109.98874678682576
100000000000014,Nola Ryan,39.304453774706595,-95.80534705136424
100000000000015,Brandy Huels,29.766895526592823,-107.54705201838344
100000000000016,Jaida Jast,25.183020523477516,-108.27631024449306
100000000000017,Ervin Wilkinson,28.745579222517883,-125.86540232372997
100000000000018,Jody Hoppe,41.89864522957119,-78.25043334447115
100000000000019,Jude Simonis,33.19710001303803,-90.62063421867173
100000000000020,Emie Waelchi,34.06151268442895,-112.84646419685647
100000000000021,John Hammes,37.62596306328679,-98.91630565103404
100000000000022,Domenica Schumm,27.245471004276816,-99.57268568173836
100000000000023,Lucious Schowalter,44.7175985292336,-105.10780707319196
100000000000024,Yoshiko Schneider,32.120130049086995,-68.24968826681142
100000000000025,Emmalee Rau,37.304045332552235,-125.5984197206751
100000000000026,Miguel Reichel,28.318508646137808,-122.88273070600752
100000000000027,Isadore Glover,41.783318393958595,-114.65864254766272
100000000000028,Theodora Kihn,26.94131736539007,-73.43667057548402
100000000000029,Muhammad Koelpin,35.86265753112841,-67.21139432847798
100000000000030,Cecil Maggio,47.008957301373755,-109.92166723528965
100000000000031,Humberto O'Hara,44.17475665920311,-77.75931646136769
100000000000032,Vaughn Schaden,32.34896803825071,-80.17384123685287
100000000000033,Immanuel Hackett,37.22435358273894,-101.74911808111084
100000000000034,Erin Will,25.05840887728981,-108.47772563511168
100000000000035,Eddie Murray,27.742435665509163,-112.1432382369185
100000000000036,Nickolas Gusikowski,41.033153233187264,-95.994121379067
100000000000037,Miracle Bashirian,30.08550225554856,-112.49386623358812
100000000000038,Jarret Doyle,45.53973224712595,-82.64832988953248
100000000000039,Devante Torp,47.93329648972972,-84.320143792316
100000000000040,Mavis Predovic,34.11209105909676,-102.9256916925647
100000000000041,Jeanne Altenwerth,48.49950986224142,-95.98232925371995
100000000000042,Hayden Sporer,40.30870175969259,-89.3323161791885
100000000000043,Anita Yost,49.147552238487094,-97.39886155726064
100000000000044,Carolina Hermiston,42.78487467345718,-79.16843952473758
100000000000045,Lavada Runolfsson,49.572584133453674,-93.30905573703154
100000000000046,Reid Larkin,35.81848525791526,-91.68344936920472
100000000000047,Dejuan Leffler,46.5545837359023,-73.77782455549638
100000000000048,Shaniya Kunze,49.817079323880506,-79.28929664658295
100000000000049,Colin Berge,47.06593672516129,-78.66668292689226
100000000000050,Scarlett Murazik,25.609503551855905,-95.01012489026382
100000000000051,Roman Carter,34.61373392675027,-104.61784806657178
100000000000052,Sandra Considine,38.63491285112311,-81.28536886859153
100000000000053,Conner Pacocha,46.60755588079967,-70.42192062094632
100000000000054,Arthur Stanton,27.265547238099252,-101.37166228543424
100000000000055,Kendrick McGlynn,29.842625789576015,-111.87837501838106
100000000000056,Dulce Bartoletti,32.44364974035215,-72.67531080614717
100000000000057,Helena Shanahan,38.24516525917244,-88.73316654122917
100000000000058,Leonardo Murray,29.157988286582725,-100.05286217196844
100000000000059,Blaze Reichel,27.341300793147788,-112.5870299547864
100000000000060,Heloise Casper,33.32264139057519,-122.06278766486923
100000000000061,David Hamill,32.68112897934272,-115.3956487816175
100000000000062,Roselyn Howe,30.247580674136987,-112.25346263892372
100000000000063,Roderick Hegmann,38.43023166113082,-92.90965415557233
100000000000064,Jammie Swaniawski,40.49568930100787,-106.50242743793945
100000000000065,Kacey Hilpert,44.94870659058523,-125.55611327674644
100000000000066,Colton Wolff,46.72101292204444,-93.6368897828236
100000000000067,Clare Smith,43.27855883085748,-120.40786426974022
100000000000068,Taylor Abernathy,31.75853011437626,-71.76514528319937
100000000000069,Laurianne Dooley,39.644039285026054,-97.49648518277942
100000000000070,Rowan Glover,47.91502990614904,-92.42880998557254
100000000000071,Samson Green,46.153008746502465,-116.05844382730218
100000000000072,Savannah Hyatt,44.867203881476385,-73.58563130652479
100000000000073,Carroll Hettinger,41.12277071981407,-103.49828939673569
100000000000074,Westley Konopelski,28.60760669328949,-109.4794176043302
100000000000075,Neva Schuppe,38.17228323287408,-67.20011917526702
100000000000076,Magdalena Daniel,34.25745134295092,-99.37995331782788
100000000000077,Jovan Pfeffer,45.958010202765514,-100.59559964477546
100000000000078,Marjorie Ortiz,37.923069222975,-116.70569769360918
100000000000079,Kameron Mayert,46.80150871053408,-74.57717632761936
100000000000080,Tara McDermott,27.85817602419914,-71.466715244683
100000000000081,Mossie Conroy,41.209067253449355,-70.09848780688398
100000000000082,Naomi Beahan,33.17389453368118,-111.644850597723
100000000000083,Cali Daugherty,32.9798599523219,-123.3072511498934
100000000000084,Keith Wisoky,48.43113325709359,-125.61652449858651
100000000000085,Julien Stehr,48.87082917879542,-104.8046410713201
100000000000086,Zella Kuhlman,29.69434485522107,-72.805408304196
100000000000087,Mae Walsh,25.935086865295315,-81.19684559858678
100000000000088,Alessia Goodwin,33.04926263139616,-73.20914996217444
100000000000089,Dalton Abernathy,46.53760890409917,-110.18156341574296
100000000000090,Arlie Frami,33.37561266497682,-110.51066910972712
100000000000091,Ocie Steuber,34.248116712316445,-80.29055125991454
100000000000092,Rod Senger,40.34618241456056,-76.64839692076345
100000000000093,Darby Hills,27.407111793235416,-106.73882924484698
100000000000094,Hunter Doyle,35.84334041533471,-104.903526885556
100000000000095,Mervin Lakin,25.397509022504416,-103.47420870328116
100000000000096,Tierra Pollich,42.76448241222674,-67.54599091311385
100000000000097,Jonatan Davis,47.32478014680506,-102.00625508998944
100000000000098,Fleta Emard,40.736126827300374,-72.35765341289402
100000000000099,Felipa Friesen,25.504728324705145,-105.9108456459426
100000000000100,Prudence Price,45.32064234347651,-118.04734907317426
100000000000101,Barry VonRueden,29.58424115285517,-87.92788521290329
100000000000102,Kaya Pagac,26.06265969337213,-92.1641126042092
100000000000103,Jalon Mertz,37.82447596225019,-107.69292158367828
100000000000104,Lilla Kemmer,28.618548894492537,-91.72947160937454
100000000000105,Agnes Howell,37.97172886098363,-72.2004140270262
100000000000106,Drake Gulgowski,48.61421635787583,-88.52406232650941
100000000000107,Keenan Jones,39.14032905268252,-119.73642087188534
100000000000108,Lowell Deckow,48.90105680498044,-79.28347241059183
100000000000109,Aniyah Wintheiser,39.826659507327626,-69.61110702007335
100000000000110,Keely Schoen,47.298140674788435,-84.50960193224678
100000000000111,Meredith Lynch,48.79285538152226,-72.16938564174941
100000000000112,Dagmar Kozey,29.005221146419817,-91.98713611929556
100000000000113,Isac Rempel,36.52042360289353,-101.94478778451918
100000000000114,Andres Ernser,38.48573582211916,-101.2785882013898
100000000000115,Marlen Tremblay,46.51669944621964,-78.12278945022105
100000000000116,Sydney Mante,47.38087438704008,-114.27216286280157
100000000000117,Jeanne Maggio,42.12587519615297,-110.49950489183014
100000000000118,Giovani Von,46.43081611916428,-117.19664027585208
100000000000119,Gia Rolfson,43.4811916664963,-88.08802733936665
100000000000120,Annalise Schulist,36.896130296869615,-100.44523534372368
100000000000121,Marlene Rice,38.77629350300881,-118.09029498440118
100000000000122,Isai Hirthe,25.195940770570736,-120.2916226314089
100000000000123,Jovani Wolff,38.69056993378667,-77.1738929309808
100000000000124,Brock Larson,46.13972459959805,-94.39848763206712
100000000000125,Claudia Gerhold,26.227261186682437,-83.70887470039008
100000000000126,Onie Witting,35.7511110120829,-81.71029684388563
100000000000127,Marilie Bayer,35.315967061044944,-123.31946758861744
100000000000128,Kole Gusikowski,36.998180068567095,-123.3652521123996
100000000000129,Cecil Johnston,42.33817495365638,-98.49992029049416
100000000000130,Willow Zemlak,40.17318443977164,-103.43665363489208
100000000000131,Herminio Roob,41.70318411413716,-117.22716827967346
100000000000132,Paige Grimes,28.971209003740903,-91.39747079790207
100000000000133,Declan Schumm,39.257057419270765,-79.84282641992493
100000000000134,Amos Hettinger,36.056599480882795,-84.2350262384127
100000000000135,Roger Hilll,47.03719426782173,-123.00393564005203
100000000000136,Augusta Runolfsdottir,39.50871454540809,-95.29466911914112
100000000000137,Ophelia Pagac,48.654721079327224,-72.24077909791893
100000000000138,Joanny D'Amore,40.16118196680179,-119.77921285744944
100000000000139,Elenor Hayes,44.00055303418662,-91.27910446787068
100000000000140,Kyleigh Mitchell,42.19965720726836,-111.03147309790094
100000000000141,Sarina Brakus,49.29292536448163,-92.90573585462153
100000000000142,Norene Koch,36.95309616819201,-125.82404172012671
100000000000143,Miller Prohaska,30.98322221951102,-119.27167840168492
100000000000144,Else Corwin,49.45936562731241,-87.4682140806387
100000000000145,Isaias Pagac,47.94282885312285,-119.03157902513873
100000000000146,Bryon Hermann,38.76855619657484,-82.33490922602462
100000000000147,Alicia Langosh,27.8920329364982,-81.16888525859548
100000000000148,Landen Ritchie,35.851071712665274,-101.0295478419063
100000000000149,Alexandro Dickinson,37.39690007730588,-96.81513832345128
100000000000150,Verna Kling,31.86168886489113,-121.73332524559989
100000000000151,Audra Dickens,35.18755453657718,-96.38277504113717
100000000000152,Donny Rohan,40.30061976809694,-85.82279463822336
100000000000153,Delfina Renner,35.613441040958804,-118.83791302490476
100000000000154,Torrance Bernier,31.32419406808114,-116.8327574317868
100000000000155,Raphael Schaden,42.68072228185666,-101.40118733399216
100000000000156,Johnny Greenfelder,28.22038244636666,-103.60699231265534
100000000000157,Kacie O'Reilly,37.86270663367928,-77.25476533928563
100000000000158,Mitchel Predovic,44.64097795474184,-110.6453339123548
100000000000159,Drew Renner,49.820189855626694,-115.61742110042974
100000000000160,Devan Gerhold,31.870447684956083,-97.01593054985516
100000000000161,Antonia Ward,41.92743100709423,-114.57200142210904
100000000000162,Giovanni Walker,41.30199660556505,-99.27637457176752
100000000000163,Daniela Little,49.212003578700774,-122.86049804540484
100000000000164,Billie Haley,38.4990370814856,-72.91567095284881
100000000000165,Angelina Funk,29.63729532882342,-120.2388792345763
100000000000166,Collin Maggio,26.38587182536632,-101.26902015578072
100000000000167,Ardella Gleason,34.1487718761639,-86.96960525292411
100000000000168,Camylle Wintheiser,44.65128235131363,-106.80096083776006
100000000000169,Delphine Reynolds,31.86034085887256,-85.85124797857483
100000000000170,Stewart O'Connell,27.792989060900585,-122.07594917792376
100000000000171,Chelsey Lakin,38.882939332495326,-105.91791906847966
100000000000172,Francesca Ledner,42.470080533427875,-97.54150438175856
100000000000173,Michaela Fahey,28.47429427262885,-115.9817624526813
100000000000174,Bessie O'Kon,26.95531459766239,-93.2905552081231
100000000000175,Eldridge Hickle,44.662808785646035,-108.91941815513802
100000000000176,Deven Bogan,26.85428049875701,-108.2206096683928
100000000000177,Jany Ankunding,42.858797635529385,-110.58245021908928
100000000000178,Athena Bruen,31.599574273694113,-101.40408114177598
100000000000179,Sherwood MacGyver,25.433571970391316,-103.06305406315178
100000000000180,Kayley MacGyver,42.29683127285786,-79.88630633610552
100000000000181,Mekhi Sanford,48.38940278848682,-108.05360708370436
100000000000182,Forest Bergstrom,25.9612510556199,-67.88143128471064
100000000000183,Marshall Bernier,37.384875366924454,-109.8912283349687
100000000000184,Carleton Orn,36.51915275865848,-114.16488867563292
100000000000185,Viviane Jones,48.49674113097741,-86.99070839283792
100000000000186,Rasheed Rutherford,46.16693757535441,-115.65135186049096
100000000000187,Ena Robel,38.91321422443065,-94.72188556234622
100000000000188,Emmy Shields,49.380613599866464,-100.645164790791
100000000000189,Tyler Kuphal,25.445614168201523,-71.09224108447123
100000000000190,Leonor Bogisich,46.42716035402435,-74.06027243552668
100000000000191,Stefanie Sanford,29.7505796011858,-107.75180517940584
100000000000192,Pattie Stroman,45.181253482924554,-109.05073456377752
100000000000193,Kevin Bosco,45.10212165408515,-99.47417679322922
100000000000194,Kayley Herman,32.68035617556343,-85.68565507976288
100000000000195,Weston Hansen,40.2507072833214,-97.56392691557134
100000000000196,Chance Rowe,27.196844482807663,-125.25784546034436
100000000000197,Erich Wilderman,38.444978121573214,-71.77161676687564
100000000000198,Haskell Okuneva,29.54314420854471,-125.95910344167513
100000000000199,Adeline Barrows,42.19958518363377,-68.9587911249393
100000000000200,Florida Feil,34.62478915533199,-115.03993638272485
100000000000201,Velma Greenholt,32.11499350703745,-113.34155058900345
100000000000202,Kelsi Miller,30.92126757046036,-92.93914900501102
100000000000203,Krystel Douglas,33.03178195304553,-86.236617087682
100000000000204,Willow Moen,25.132036012217338,-69.08290309589118
100000000000205,Tevin Baumbach,44.409091400382366,-112.59309587756265
100000000000206,Reymundo Gusikowski,36.00880302601989,-79.9703894672812
100000000000207,Leonor Hills,49.324147896346005,-125.56970293205973
100000000000208,Precious Collins,36.70584402425989,-81.02708314509519
100000000000209,Giles Bailey,27.175574696508978,-96.15817309298129
100000000000210,Annie Runte,31.67146080854037,-71.72162858477625
100000000000211,Zander Moen,38.03925017631227,-90.46158188853924
100000000000212,Julian Will,45.09739150992466,-110.14445713766396
100000000000213,Ima Rutherford,48.77979815315804,-71.63612227186044
100000000000214,America Satterfield,42.42972791166878,-118.46847648363432
100000000000215,Sallie Sauer,44.81050533390123,-77.1544719150269
100000000000216,Adah Rosenbaum,46.212568573486536,-93.89387578851688
100000000000217,Santa Sawayn,28.131842181120813,-80.2717077313181
100000000000218,Baylee Cremin,46.68437856328766,-86.0963272057671
100000000000219,Kane Langosh,38.446028124783425,-91.5995096098761
100000000000220,Tad Jacobson,47.41813282824269,-71.82097217055576
100000000000221,Margie Kerluke,31.127641510742823,-117.02380497408272
100000000000222,Abe Fahey,47.43449727180687,-109.59490258142316
100000000000223,Taya Larson,36.851725566966394,-122.23121368572288
100000000000224,Lexie Tillman,28.303329291609455,-125.68904377228482
100000000000225,Sven Dietrich,37.55897196780643,-96.04452084156053
100000000000226,Lynn Torp,26.894353877598085,-122.41430609345888
100000000000227,Millie Fritsch,32.02995115789899,-119.6029398723034
100000000000228,Zora Streich,46.220075403872826,-106.99910781081854
100000000000229,Neva Batz,25.22062597174829,-69.03411749456717
100000000000230,Hailey Larkin,44.43504238688304,-120.12572525156742
100000000000231,Breanne Nader,30.790367430671,-120.61323142626593
100000000000232,Ayla Ferry,26.030493098718622,-106.09582448257544
100000000000233,Rudy Lowe,31.05690305015345,-95.55316022279348
100000000000234,Robb Hayes,32.04982089118729,-69.97285852831916
100000000000235,Nathanial Kuhn,46.27222990387229,-86.64039249600799
100000000000236,Alford Waters,43.15397660994017,-72.10249452773735
100000000000237,Reece Shanahan,29.950446900664065,-118.159758804322
100000000000238,Cody Strosin,27.916838372720747,-81.50115300186529
100000000000239,Eldon Jakubowski,43.41049923133586,-108.27051725848897
100000000000240,Hans Veum,26.065400040416225,-82.10484436423839
100000000000241,Marisol Weimann,36.53417275328616,-89.74807512929647
100000000000242,Leatha Predovic,33.1055563260812,-85.61532821780067
100000000000243,Macie Grimes,28.59587009991089,-123.81634149017609
100000000000244,Boris Effertz,31.340095873128316,-89.28466529527941
100000000000245,Alfred Gerlach,32.372279848608144,-107.94636594216206
100000000000246,Gail Tillman,25.272898050999665,-91.86410072779675
100000000000247,Ronaldo Purdy,32.123512467304955,-67.04593755635474
100000000000248,Alvis Conroy,31.619361762933657,-108.68971447145506
100000000000249,Curtis Crooks,40.13821814278227,-84.74470345885399
100000000000250,Fredy Klein,28.4068753410404,-125.3661086136838
100000000000251,Doris Olson,36.27064036410203,-94.0644617339824
100000000000252,Frederic Von,25.214340708509965,-119.12206155345883
100000000000253,Jasmin Tillman,45.741168553382224,-125.13069440608082
100000000000254,Harold Lynch,27.36811821778286,-68.96683165537426
100000000000255,Kameron Flatley,42.320854397945794,-87.84968313475076
100000000000256,Louvenia Labadie,45.08304072617567,-67.32673710225879
100000000000257,Lenore Ryan,34.43328861036123,-88.29404749186236
100000000000258,Delfina Stroman,37.310173208210585,-108.67439262072992
100000000000259,Frankie Gutkowski,38.99168378961333,-109.11881030328357
100000000000260,Concepcion Gorczany,35.39241561244938,-87.37399325463477
100000000000261,Ona Dickinson,33.904245370539,-74.79813745359742
100000000000262,Wilton Kunze,49.67798100844705,-84.48464627773032
100000000000263,Doug Johns,44.32155973499344,-99.33884775195128
100000000000264,Carlos Rippin,34.59845550802481,-72.81499127541937
100000000000265,Noe Feest,29.559597589013748,-86.65326209154156
100000000000266,Santina Kertzmann,46.34156228112833,-101.47602695579116
100000000000267,Kathryne Brekke,47.81000273041886,-120.77011141713236
100000000000268,Edward Toy,39.377467513909906,-91.25651111536544
100000000000269,Yvonne Greenfelder,31.10160417195984,-99.71354529965762
100000000000270,Chelsey Torphy,44.51544204646417,-96.19099053820712
100000000000271,Jan Eichmann,33.70863279962883,-99.74469833779338
100000000000272,Josiah Will,49.10088474770619,-114.1526647822323
100000000000273,Drew McClure,45.140823377106855,-83.46863203015948
100000000000274,Wayne Rowe,42.265646117620136,-109.79570469645758
100000000000275,Cary Thompson,26.0853265429072,-110.69654460947844
100000000000276,Charlene Gulgowski,43.54538003643991,-84.05220860636516
100000000000277,Maxwell Cassin,37.646866018020745,-111.34629087029242
100000000000278,Herminio Herzog,40.81375433212715,-97.71509291497377
100000000000279,Adele Schroeder,32.761326000579786,-112.57998712996354
100000000000280,Emmitt D'Amore,32.80581919950805,-119.94121020938844
100000000000281,Imani Wyman,31.5039013165088,-68.70279923027474
100000000000282,Dahlia Ankunding,37.49690512323005,-116.18196134621294
100000000000283,Faustino Hilll,35.35857938942639,-98.56230591301764
100000000000284,Elwin Nienow,43.0638729002838,-90.27503955983876
100000000000285,Marjolaine Lindgren,27.7616348137242,-104.05710606035242
100000000000286,Amani Senger,39.75951876323867,-111.27849771014938
100000000000287,Ike Boyle,43.10496836190764,-70.15427481251554
100000000000288,Dasia Pouros,37.6217187193686,-96.7276580331654
100000000000289,Nathan Koch,42.2563626702369,-72.97660504463903
100000000000290,Frankie Stokes,35.56383170980659,-73.25396333938484
100000000000291,Beaulah Prosacco,37.455699154703645,-116.23250656293118
100000000000292,Dimitri Hand,45.31073136383819,-105.09868299401634
100000000000293,Citlalli Okuneva,35.33010304037995,-114.39724827375434
100000000000294,Mitchel Beier,35.6308089083476,-119.60006464019172
100000000000295,Cathy Dibbert,45.82013462010136,-93.15093220160423
100000000000296,Lucious Barton,45.67507722823521,-119.96557554036484
100000000000297,Junius Steuber,46.15733246632756,-86.45670660019232
100000000000298,Donnie Cruickshank,46.12517316591793,-112.61020196532644
100000000000299,Phyllis Koss,45.34979182807024,-74.97416157758022
100000000000300,Jon Lakin,37.20093472223875,-75.23279482609324
100000000000301,Jaren Haley,44.07828294192605,-79.12965394623049
100000000000302,Elroy Walsh,45.92947737100323,-119.560310584595
100000000000303,Rosanna Heaney,30.79092617183613,-101.75099576693704
100000000000304,Carley Corkery,36.26512456713646,-116.83262734132089
100000000000305,Dayana Cummerata,42.439939410271464,-68.56008002133585
100000000000306,Florence Brown,34.64145505455099,-125.79523510787536
100000000000307,Ron Shields,46.083724121307824,-88.68423285673907
100000000000308,Lawrence Sipes,45.30520880192162,-117.73998976440474
100000000000309,Gaylord Leffler,43.209100471284415,-120.84927018396549
100000000000310,Tate Upton,29.727089858361488,-103.65140410470174
100000000000311,Sallie Zulauf,33.485864944198156,-111.88256245472964
100000000000312,Dixie MacGyver,45.475587854453806,-108.93127616613202
100000000000313,Ottilie Price,35.707857161530825,-107.3401557409741
100000000000314,Myah Christiansen,30.32424604672278,-68.72699131039299
100000000000315,Elroy Boehm,42.773982884199,-105.69428190379772
100000000000316,Nona Lubowitz,49.05486434046264,-76.41695697682987
100000000000317,Ethelyn White,32.90096098293946,-111.01811434506902
100000000000318,Icie Kessler,37.83217113030702,-80.48175280132767
100000000000319,Theresa Haley,31.08289241510343,-97.62502964394838
100000000000320,Tiara Yost,28.450057078628323,-71.56701816004255
100000000000321,Jaylen Wintheiser,30.523210356705903,-111.44331352540712
100000000000322,Vinnie Purdy,36.229545781646465,-96.71142255606338
100000000000323,Hulda Tremblay,27.793276198158612,-101.5225293147384
100000000000324,Jevon Yost,48.83503138134134,-119.94502951889856
100000000000325,Kaci Treutel,27.883307664187928,-124.4874437498938
100000000000326,Amara Mosciski,39.71574614733093,-82.23118071027912
100000000000327,Andrew O'Keefe,46.74263544409651,-67.91437727649117
100000000000328,Tre Hermann,31.893714944084028,-120.53489840166404
100000000000329,Efrain McLaughlin,48.155086459738904,-92.0556148207179
100000000000330,Jeffery Langworth,38.82973442232328,-92.93399073393068
100000000000331,Winston Douglas,37.430393734332,-92.03061871511672
100000000000332,Jayde Langworth,38.26055668879397,-122.33900029339767
100000000000333,Gerardo O'Keefe,30.631405203991125,-71.07600974991175
100000000000334,Tevin Erdman,35.510675721545766,-112.162320018748
100000000000335,Rebeca Franecki,35.29047269898611,-89.28368652743137
100000000000336,Graham Keeling,38.22372026073274,-114.4612584683876
100000000000337,Sabryna Lang,48.64109350282163,-100.8182583361821
100000000000338,Theresia Hansen,43.590288790756546,-86.76615285312488
100000000000339,Kendra Balistreri,45.49102750403715,-77.71152904591544
100000000000340,Toy Zulauf,39.03928308920017,-107.79961522413636
100000000000341,Burdette Considine,29.53409043529078,-114.30923674646024
100000000000342,Walker Spinka,26.641644701476487,-97.42917476961176
100000000000343,Michele Windler,27.51105540483249,-85.84908257421701
100000000000344,Tad Hettinger,41.27647689603173,-122.84481107293732
100000000000345,Tianna Labadie,49.63958194438683,-67.1568290484469
100000000000346,Samantha Blick,25.10865058829686,-104.24431554683132
100000000000347,Burley Morissette,29.843604395224595,-68.87684540132861
100000000000348,Leif Nitzsche,33.54621771454124,-102.62453851614092
100000000000349,Lilla Hegmann,30.962871505350343,-74.06360850332405
100000000000350,Polly Hodkiewicz,48.372423973569354,-107.74010226461095
100000000000351,Marlen Brown,31.555785015069873,-84.43309252797988
100000000000352,Malvina Bechtelar,41.61117674470026,-117.06071020436464
100000000000353,Florian Daugherty,28.528394357280877,-85.22444542745819
100000000000354,Garett Hansen,48.86163590963399,-84.82180529416516
100000000000355,Warren Ullrich,36.36500253337946,-94.1080943046205
100000000000356,Sallie Daugherty,29.528020006522915,-112.26146407162248
100000000000357,Martine Collier,43.26281917828573,-96.51029805034396
100000000000358,Willy Weimann,49.355513388704665,-102.41613203230854
100000000000359,Lurline Walker,48.944938241880266,-113.63044844983494
100000000000360,Eli Gerlach,46.86869652705841,-69.0670594066453
100000000000361,Taurean Cummings,45.98410004283196,-67.43137814470639
100000000000362,Kasey Mante,47.65560548615653,-111.70518442399528
100000000000363,Vicky Schmeler,26.223536841483742,-110.04990278357477
100000000000364,Chloe Jast,48.141165292026926,-73.56587727705886
100000000000365,Nelson Jenkins,42.84437757402486,-70.47854041130469
100000000000366,Waldo Stiedemann,34.74225574250028,-92.51659878841798
100000000000367,Rollin Stehr,38.72959106696664,-118.64176645685866
100000000000368,Beryl Jerde,42.43131660031947,-94.70091532765328
100000000000369,Gregg Hickle,45.92463626935638,-109.1068339603526
100000000000370,Vanessa Stiedemann,43.41498294176501,-92.15477749600734
100000000000371,Marcel O'Reilly,42.34143248919681,-109.360970598033
100000000000372,Ora Nikolaus,41.10931188444968,-96.32921240359212
100000000000373,Cornelius Feeney,37.618040249575486,-110.86247512109288
100000000000374,Nyasia Rodriguez,31.98392430789019,-67.91313675946502
100000000000375,Derek Mann,32.55743948162901,-85.7236296641863
100000000000376,Idell Rau,35.07462659737705,-68.22959420770059
100000000000377,Fatima Walsh,33.99124363881339,-96.87036524371578
100000000000378,Lafayette Beer,31.60339352611875,-104.00980181292162
100000000000379,Dustin Kuphal,33.82450691908143,-88.4780309678131
100000000000380,Alivia Green,31.61166207979045,-71.07763451600783
100000000000381,Armand Beer,48.22913796076308,-89.79334781100738
100000000000382,Will Wisozk,48.06970706329977,-80.48912263514111
100000000000383,Jonathon Ziemann,45.21636166923318,-107.94921523035984
100000000000384,Naomie Hickle,42.45789016313891,-106.61134218827068
100000000000385,Arnaldo Gleichner,45.35493382020316,-79.4690325872962
100000000000386,Jerry McKenzie,49.65125944764479,-111.3642624977952
100000000000387,Demarco Koepp,35.5614773511538,-100.91042123179776
100000000000388,Shyann Hessel,39.12204721759781,-75.32425258618383
100000000000389,Nolan Prosacco,32.20200325785213,-81.27458033074265
100000000000390,Dwight Pagac,31.318785578604913,-93.78035036827804
100000000000391,Claire Reichert,39.7347679134878,-100.31375745248327
100000000000392,Orland Kris,39.90379564447716,-114.8550545598662
100000000000393,Destiny O'Reilly,32.30778222146996,-89.46143216493508
100000000000394,Grace Reilly,44.2845413925874,-106.8173494129728
100000000000395,Rae Rippin,38.59264469407,-120.24849007015315
100000000000396,Guillermo Miller,34.71930837576381,-105.85663321459865
100000000000397,Stephania Bergnaum,26.06441223155392,-123.30217689307466
100000000000398,Silas Muller,48.587217086347664,-111.9173699441273
100000000000399,Camille Hintz,42.26902810720506,-124.3674357792721
100000000000400,Adolfo Monahan,38.69881162869529,-121.92863037405137
100000000000401,Luna Smitham,27.200525979498646,-72.59202057848648
100000000000402,Grayce Rosenbaum,38.93943641838931,-69.07260042613024
100000000000403,Armand Doyle,45.95067675435119,-95.69108148952894
100000000000404,Solon Powlowski,39.9530264892479,-77.96392219571221
100000000000405,Lonny Bradtke,32.70170262930493,-78.70031419657877
100000000000406,Trent Kautzer,40.72145611123795,-68.90362811595826
100000000000407,Fabiola Wiza,32.6471613220989,-74.65440889641803
100000000000408,Nick Macejkovic,34.07300683722955,-106.8552177906558
100000000000409,Jeanie Robel,48.979740172521346,-104.98818351866188
100000000000410,Brennan Harvey,45.05018449917972,-84.71802832626925
100000000000411,Cathy Hills,28.295155241657778,-79.59513453094947
100000000000412,Ransom Roberts,35.939070444190136,-100.26141763617868
100000000000413,Arno Block,42.57229278513847,-106.27481648283673
100000000000414,Gabriel Boyer,41.53515798591119,-82.29987055562307
100000000000415,Germaine Legros,34.985073212629686,-125.18583347484166
100000000000416,Tomas Ratke,27.53551482886688,-82.7823684271043
100000000000417,Lisandro Ebert,29.031668239243473,-120.60271942080033
100000000000418,Myrtice Streich,35.71962733286652,-117.96336094003428
100000000000419,Geovany Ortiz,32.87381297399138,-71.55902506813553
100000000000420,Alvera Dicki,49.89192309050677,-109.5400245720155
100000000000421,Domenica Rice,35.29730827650924,-118.16882549940428
100000000000422,Wanda Mayert,44.68980657658392,-125.6549313281752
100000000000423,Jessica Parisian,49.90523039954409,-79.69011722485416
100000000000424,Julius Collier,35.99624418888531,-67.9788535633399
100000000000425,Marvin Baumbach,45.219808740183595,-110.00606625261008
100000000000426,Shayna Johns,27.062177582581825,-109.57016066104003
100000000000427,Enos Torphy,26.514780185156127,-97.61437426207507
100000000000428,Ezra Kerluke,48.4786918182384,-96.19661471259136
100000000000429,Mariela Olson,49.19862069238953,-92.03906549169228
100000000000430,Lisa Feil,31.258667401522143,-75.85614825728504
100000000000431,Issac Raynor,29.606359965772363,-123.17909104996922
100000000000432,Rebeca Bahringer,35.91443828480678,-67.47241952663714
100000000000433,Favian Feest,35.38207628429739,-73.67403553581221
100000000000434,Annamarie Schmidt,40.80277861200141,-82.0230917897415
100000000000435,Bryon Baumbach,38.54178593114801,-70.1998678068514
100000000000436,Maeve Bartoletti,48.408222336651406,-68.60716481347717
100000000000437,Ayla Braun,30.132429244594068,-93.37961417033029
100000000000438,Elinor Wolf,38.4612142412262,-69.08148553187445
100000000000439,Mollie Bernier,46.981535056710214,-69.40422732482091
100000000000440,Dario Pollich,35.934338992476256,-99.35408581621648
100000000000441,Alek Runolfsson,46.468101180986565,-97.15083730541792
100000000000442,Stuart Reichert,28.500554371709796,-116.96021608474832
100000000000443,Janis Moore,39.80657095472578,-79.98031805005161
100000000000444,Name Fahey,42.291856584402595,-89.39749450935435
100000000000445,Danny Eichmann,41.96640836759455,-71.19514358055179
100000000000446,Anderson Hammes,36.72185595469004,-99.47648410555736
100000000000447,Colin Rogahn,26.053094931927884,-79.48693721961581
100000000000448,Shawn Stoltenberg,34.096908585727356,-86.3416807125943
100000000000449,Jaquan Predovic,37.21927150183008,-120.31605913404674
100000000000450,Kennedy Stamm,43.91580142527389,-84.1150559264502
100000000000451,Frieda Kling,27.176529569855283,-76.89444961842811
100000000000452,Delmer Feest,32.576365112062085,-83.93460956730554
100000000000453,Adrien Bins,47.31828046270957,-121.76089428334129
100000000000454,Hassan Hermiston,29.26189641222387,-80.94119530803002
100000000000455,Narciso Koepp,48.53388857517842,-106.70036458355968
100000000000456,Jonathan Okuneva,29.187657869819432,-116.5669575380294
100000000000457,Jaqueline Wilkinson,43.86638827766074,-74.19007221717237
100000000000458,Nicholaus Kihn,36.18794039076311,-124.17821402559856
100000000000459,Edythe Jacobs,36.18473374523927,-103.29311776665088
100000000000460,Libby Turcotte,35.79328921118254,-76.55176926533406
100000000000461,Terrence Hettinger,26.168428402506393,-121.4387288274643
100000000000462,Jacquelyn Haag,34.4530632744805,-85.98908680695243
100000000000463,Al Marvin,27.935307488144023,-76.61960038284413
100000000000464,Lessie Gottlieb,29.12549637841829,-116.46276695351052
100000000000465,Aiden Haag,46.9148793095542,-78.74151559234761
100000000000466,Devin VonRueden,26.44690078780011,-90.02493313085577
100000000000467,Samson Blanda,27.443627847299133,-107.74637936392706
100000000000468,Vicky Jacobson,35.09018101807426,-71.06825491783516
100000000000469,Noel Rutherford,28.353138877265284,-81.43072694599135
100000000000470,Myriam Flatley,49.492028151848274,-88.1374885064116
100000000000471,Roslyn Yost,49.94024941772507,-91.42984318993894
100000000000472,Aliyah Feil,32.41762827373763,-86.22815253467593
100000000000473,Emelia Lindgren,45.21599141280748,-121.02889272278264
100000000000474,Germaine Bailey,41.77634598040525,-123.56034852879206
100000000000475,Doug Veum,41.96610675318371,-116.5835747999668
100000000000476,Waino Hessel,49.19482687568538,-77.42394338351468
100000000000477,Lucius Wuckert,36.775791072352085,-99.02342129559752
100000000000478,Delta Gusikowski,44.41328813516529,-125.03008918634713
100000000000479,Ray Auer,43.35457522708625,-120.23684644420292
100000000000480,Dashawn Green,44.26787099857535,-121.79713278836188
100000000000481,Rosella Beatty,44.64146772586756,-107.68295106675694
100000000000482,Maybell Conroy,35.185800901568335,-71.739115687837
100000000000483,Marion Labadie,40.12372288638825,-71.74545549646732
100000000000484,Rickey Rippin,42.92618795773689,-113.05449244931329
100000000000485,Hester Bruen,28.300122604690504,-121.91652244002334
100000000000486,Nathanial Franecki,28.377283426411367,-89.11045236597823
100000000000487,Neva Weimann,31.42755030462631,-118.39592566876824
100000000000488,Gladyce Turcotte,40.03575149811701,-105.2366813980024
100000000000489,Skylar Balistreri,48.6259794543336,-94.59894504826728
100000000000490,Pierce Heaney,29.556707310519887,-68.34522252720838
100000000000491,Alena Barrows,46.915714841680504,-93.051573945554
100000000000492,Oceane Beatty,37.12231929332226,-101.47264751388045
100000000000493,Daphnee Stamm,47.723913737854694,-97.66075200480144
100000000000494,Shaylee Emmerich,43.552750351074906,-119.7229456525921
100000000000495,Jessie Keeling,48.956946594226,-105.03480077332884
100000000000496,Meaghan Graham,40.68966077950199,-75.62178547958749
100000000000497,Murl Muller,44.66145466086895,-124.4277849200159
100000000000498,Zoe Hickle,46.06967102058786,-71.7939542286482
100000000000499,Viviane Jenkins,49.11836195446149,-99.07262241371608
100000000000500,Jackie Schiller,33.60337862495073,-113.21995805534328
100000000000501,Breana Yundt,40.046598206995874,-116.31304833847774
100000000000502,Delaney Funk,49.703413871289214,-86.50265713784123
100000000000503,Kellen Ryan,44.88578855480284,-110.8026072095002
100000000000504,Magali Hartmann,41.90537464003282,-91.77282238633236
100000000000505,Renee Ankunding,28.86745823953749,-75.55841568999651
100000000000506,Joelle Gorczany,38.61382202393964,-117.32332462153524
100000000000507,Fanny Lehner,28.195392685709457,-121.81365780085684
100000000000508,Hailee Carter,47.25747324098979,-100.81514713211124
100000000000509,Ramon Bradtke,35.240974517022956,-101.7338652421148
100000000000510,Keven Cormier,40.95056583206715,-119.8287017834663
100000000000511,Gerda Casper,27.4894890218248,-77.80983178844713
100000000000512,Lorenza Durgan,48.48514634329211,-67.91776080800366
100000000000513,Kyleigh Gerlach,40.92057732668829,-113.95688622099338
100000000000514,Zoey Moen,30.78047454091096,-74.23494662638461
100000000000515,Jana O'Reilly,36.41979557611885,-73.07540278452652
100000000000516,Emory Becker,28.331632376659183,-78.41712608018764
100000000000517,Guillermo McGlynn,49.27694537504205,-92.71388995089444
100000000000518,Alene Kohler,29.52660205727824,-104.03871328262817
100000000000519,Janice Dooley,26.447367583810337,-119.81554062511736
100000000000520,Ronny Spinka,27.95153809948896,-84.63347973040987
100000000000521,Maymie Quigley,28.097568876991925,-74.97640100127823
100000000000522,Glenda Crooks,45.598619943604106,-111.04399735180829
100000000000523,Reed Reichel,49.26295292415976,-67.75740656985244
100000000000524,Bert Zieme,34.407539170137944,-96.0195142205186
100000000000525,Branson McGlynn,36.95380377176392,-123.67682397146126
100000000000526,Annabel Rempel,32.572886179274974,-113.99201791700077
100000000000527,Shanny Kilback,35.61507665177239,-108.72452452986876
100000000000528,Tremayne Labadie,41.80062759352322,-88.05982246598091
100000000000529,Onie Bradtke,34.53107026529262,-83.72883744447925
100000000000530,Neha Rath,35.69148900161754,-102.79202240795247
100000000000531,Orville Olson,39.68475555013854,-93.5910926726892
100000000000532,Coby Schumm,32.5788424626428,-121.13077286582724
100000000000533,Astrid Beier,41.26748232486868,-107.8718348118896
100000000000534,Art Krajcik,46.33022041585024,-81.44657601597206
100000000000535,Elenor Watsica,35.691970176037074,-114.1882681956424
100000000000536,Kelsie Dickinson,32.37565228827646,-121.35677882997628
100000000000537,Leon Weber,25.22881863141981,-76.70302960113608
100000000000538,Elnora Von,33.431496435898005,-82.78910953677985
100000000000539,Ryley Spinka,49.98754580221359,-116.99254398218032
100000000000540,Bettye Marvin,36.19929126742919,-95.30114846622271
100000000000541,Alexanne Cruickshank,34.481562076675004,-80.68124596996219
100000000000542,Kailey Wintheiser,47.79619195525386,-68.53851330889675
100000000000543,Bethel Simonis,31.29010250130421,-77.46486945032373
100000000000544,Myron Hickle,37.02830593565676,-118.1496124300065
100000000000545,Stephany Klocko,41.83486308806833,-121.71784284532816
100000000000546,Abigail Boyer,40.07098848054713,-91.1580064296924
100000000000547,Adrianna Altenwerth,29.164718711264747,-115.94881329086216
100000000000548,Tobin Stark,49.43608948341888,-95.7702281517007
100000000000549,Lilyan Mertz,48.801373448910525,-80.03032594658163
100000000000550,Gage Rau,27.529312170993563,-91.46969490855228
100000000000551,Jailyn Littel,44.067024144821566,-71.46996932496349
100000000000552,Moriah Jakubowski,26.769625752898456,-100.69350052043242
100000000000553,Kamille Reichert,44.25390990331246,-94.27605426618555
100000000000554,Hardy Simonis,34.74354084050293,-74.5699831008564
100000000000555,Gaston Walsh,43.94158260525994,-73.36794701001548
100000000000556,Amely Simonis,35.27185062754809,-102.18261169631444
100000000000557,Bonita Klocko,36.40642538612271,-81.0793612854414
100000000000558,Marielle McCullough,26.526449436886512,-69.41612557744772
100000000000559,Gust Spencer,34.227896116019515,-82.05954035538433
100000000000560,Brooke Jast,32.011718247825314,-83.57776332946673
100000000000561,Carmela Collins,45.776836055276966,-92.19350251195894
100000000000562,Angel Larkin,27.36719645069014,-93.0049586758669
100000000000563,Zackery Keeling,46.60339739796506,-118.81270896914556
100000000000564,Marietta Crona,40.09667983257961,-97.57784296320924
100000000000565,Emelie Leannon,44.978703673906935,-75.71338434484801
100000000000566,Loyce Gusikowski,45.2045097221129,-86.56560322597706
100000000000567,Maye Gorczany,46.18480975826363,-96.96803928050804
100000000000568,Bette Kilback,45.219777799238585,-85.51615499129664
100000000000569,Berenice Kassulke,48.90744272655602,-95.37746639742151
100000000000570,Cayla Dickens,28.067530954818334,-106.74591033020675
100000000000571,Shad Jacobs,32.06746857821212,-92.77437866801196
100000000000572,Jamaal Johnson,39.35015601072173,-124.74288604518712
100000000000573,David Cole,48.48331039683268,-95.70799589174656
100000000000574,Garry Champlin,45.044067336117294,-89.30742257808345
100000000000575,Ewald Legros,34.150123723829424,-116.83940127467775
100000000000576,Mazie Haag,36.15964665439715,-106.53367617621792
100000000000577,Houston Kerluke,39.8628056309597,-115.14771444595206
100000000000578,Makenna Ruecker,26.28703658648967,-78.42801091460527
100000000000579,Rogelio Schmidt,33.858097652887395,-89.5512286921659
100000000000580,Madelynn Leffler,31.3080141424646,-116.92916972031873
100000000000581,Jameson Stokes,35.19673615709569,-74.47365096367551
100000000000582,Mavis Roob,31.85621385955524,-103.10437188522435
100000000000583,Zella Hegmann,45.84283223749742,-76.24892868081778
100000000000584,Garett Gorczany,40.81602184936139,-99.91410717045385
100000000000585,Jayda Marks,44.29422537653039,-77.83984290083116
100000000000586,Israel Purdy,47.04187467382395,-70.68503192580424
100000000000587,Amya Becker,30.17378545828786,-80.93189519747366
100000000000588,Kenny Lynch,43.1287633117452,-88.81875962783896
100000000000589,May Wolff,30.321997386288135,-98.31671118332513
100000000000590,Milton Botsford,47.18203730724774,-114.33297799194814
100000000000591,Maud Bosco,28.781659607507045,-79.55112436824805
100000000000592,Trevor Tillman,45.6116252534983,-68.23073133577014
100000000000593,Barton Reilly,25.073762197455,-93.20119156811604
100000000000594,Ilene Emmerich,49.017231619349865,-87.55137086656742
100000000000595,Dejah Yundt,25.180325779985285,-100.32450263884417
100000000000596,Merle Heaney,25.230752656537454,-105.67434869303928
100000000000597,Florence Bogan,35.568131259306405,-88.71623348676208
100000000000598,Sylvia Legros,36.51367011921711,-77.41137720110345
100000000000599,Kevin Kuhn,28.609651451321948,-110.1999108953934
100000000000600,Alysha Fisher,29.96108871003956,-122.88094510762878
100000000000601,Kaelyn Pagac,30.402753530651456,-96.39480031904878
100000000000602,Liana Powlowski,41.29503089088992,-85.40946035115198
100000000000603,Theron Green,38.72051299399105,-124.49299219309506
100000000000604,Paul Wisoky,39.045351204353665,-90.8400315756798
100000000000605,Destini Daugherty,39.14636830563916,-87.25614475885553
100000000000606,Tito Bogan,34.61420797571317,-93.18544263804526
100000000000607,Lamar McKenzie,25.01985010836993,-106.54398439626868
100000000000608,Alexis Davis,35.90188394437871,-80.92364959751326
100000000000609,Kyra Emmerich,25.0480118901161,-75.1485359186249
100000000000610,Florian Little,37.88254943865857,-114.82083137359534
100000000000611,Trudie Hane,39.53819447004222,-78.11281023464204
100000000000612,Freda Hagenes,33.128555220509455,-118.15546837233951
100000000000613,Wilson Schinner,47.99067877071106,-89.25579099507854
100000000000614,Laverne Langosh,46.77296435881013,-122.83839272473946
100000000000615,Jazmyn Kiehn,48.14363613285069,-96.78464178930253
100000000000616,Ronny McCullough,27.04371478093043,-70.66000890727594
100000000000617,Arnulfo Thompson,43.02568536814699,-67.57031429880311
100000000000618,Joan Volkman,38.05045978334768,-96.58485983730708
100000000000619,Jennings Skiles,49.74092889516989,-118.9949822749592
100000000000620,Quinn Stamm,39.58561408565724,-117.81497531323424
100000000000621,Carlos Block,34.52016691887736,-103.79892409115236
100000000000622,Loy Bogan,25.6890732030321,-114.73959728416108
100000000000623,Marielle Fay,42.845859358993565,-77.50576644110143
100000000000624,Jarrod Will,47.34610142826669,-123.02027321856713
100000000000625,Abdiel Smith,46.59824617458727,-92.79571616101236
100000000000626,Darion Toy,46.420950534526696,-94.4709811784049
100000000000627,Flo Mohr,33.01763670534761,-101.3078223390221
100000000000628,Otilia Fahey,42.62778542262022,-114.78453103504393
100000000000629,Maxwell Welch,46.268258436623825,-120.34238877113005
100000000000630,Arno Casper,45.95458987650853,-92.76532199357062
100000000000631,Jevon Funk,39.77411796466363,-108.17008348168122
100000000000632,Werner Waters,42.0530539430889,-108.14897213452878
100000000000633,Kathryn Bartoletti,40.08205371963435,-107.87537795808178
100000000000634,Vito Rohan,34.105380956959436,-104.47715952267752
100000000000635,Dulce Willms,36.608389744450285,-124.01840218488591
100000000000636,Dante Zemlak,48.02419329218745,-94.85192828413388
100000000000637,Arno Schmitt,32.64254170351524,-116.95939821404636
100000000000638,Miracle Barton,40.37385802991855,-93.42621804410012
100000000000639,Mabelle Block,25.45777804324067,-101.0888652660212
100000000000640,Lessie Paucek,32.1205505920383,-123.86199556827528
100000000000641,Roxane Bayer,28.315547182623114,-125.7799709045082
100000000000642,Philip Hessel,29.40210271562717,-108.35206319226532
100000000000643,Cecelia Cormier,40.47645228386325,-75.49700682983037
100000000000644,Enos Ziemann,37.95854270879749,-76.31577483662434
100000000000645,Pinkie Terry,35.23286812042066,-79.9076185328316
100000000000646,Patsy Moore,35.26411832009638,-85.3353531653859
100000000000647,Tremayne Hilll,31.763972080165164,-106.78811938862847
100000000000648,Jaida O'Hara,31.385819161433737,-85.07932896326463
100000000000649,Armand Dickens,30.802688705445476,-112.18996549467032
100000000000650,Newell Ziemann,30.72240406305123,-95.82722963375184
100000000000651,Ashlynn Reynolds,31.931766977327584,-104.52974289124272
100000000000652,Maurine Yost,36.14343379411769,-104.1943711877056
100000000000653,Viola Cruickshank,33.56313295562722,-76.69865455538938
100000000000654,Kip Reilly,34.16986612868901,-112.37903479239132
100000000000655,Athena Ruecker,40.67103920196669,-82.778818837355
100000000000656,Meaghan Gutkowski,27.750953372317102,-86.25699009121465
100000000000657,Sigurd Bruen,47.78194748764531,-91.54251112517926
100000000000658,Delta Tremblay,49.47095236135199,-72.43242085485306
100000000000659,Darius Shields,25.17556231526103,-103.37385351663715
100000000000660,Kellen Wehner,26.87789358270533,-80.09176723727566
100000000000661,Alanna Schmitt,39.656835532192765,-110.1312457477841
100000000000662,Alden Auer,38.127790159201666,-85.66174156203257
100000000000663,Ocie Sipes,37.06537729040082,-101.85343022172802
100000000000664,Cecelia Jast,37.676731299747075,-84.33937335805754
100000000000665,Arden Von,37.760451626685274,-83.18970084252399
100000000000666,Natalia Lebsack,39.20534983454328,-67.41091955635507
100000000000667,Angela Luettgen,27.127955482003912,-108.84483838343333
100000000000668,Johnson Parker,35.60056340919017,-117.31208200181216
100000000000669,Carolyne Stanton,37.265220427030386,-82.8106174589688
100000000000670,Lukas Hermiston,34.82099139818997,-100.62167813321912
100000000000671,Boyd Wiegand,32.93321871969307,-119.50866084425466
100000000000672,Alvera Grimes,33.631567461464215,-102.33894664876377
100000000000673,Chance Boyer,35.41498372592946,-68.85847990209666
100000000000674,Norval Wiza,36.85281885206676,-113.81191648944612
100000000000675,Dominique Stiedemann,31.943329831441975,-118.38992660381028
100000000000676,Reyna Effertz,38.31123507657,-112.28006328539084
100000000000677,Dawn Shanahan,39.168420160665775,-100.6067694728508
100000000000678,Oceane Terry,46.40874405151793,-112.54372023106944
100000000000679,Keagan Lowe,32.31668225571282,-73.98041803651313
100000000000680,Michaela Lind,28.259999193047378,-73.30083028772141
100000000000681,Daisy Roberts,33.73702558178644,-87.13133690987118
100000000000682,Margarett Strosin,36.2926461271001,-75.49978567032822
100000000000683,Jaime Schneider,44.13980357468394,-119.23365867651572
100000000000684,Rory Wyman,33.597220451566024,-106.01635803456344
100000000000685,Olga Rippin,34.700159463548204,-92.80776746681644
100000000000686,Lilly Kertzmann,27.27671071257215,-124.24118440053677
100000000000687,Dolores Bartoletti,28.86846191406519,-116.38530383014646
100000000000688,Sabina Ondricka,28.72754525819102,-97.50593184893336
100000000000689,Waylon Konopelski,38.55215302900365,-75.56412175983112
100000000000690,Broderick Stark,31.374686227925856,-111.90093973112748
100000000000691,Mckenzie Wolff,35.86816915731333,-82.56954436300059
100000000000692,Angie Kilback,30.565921546560187,-104.16256371465578
100000000000693,Liliana Ullrich,40.62300428862833,-106.87380950993868
100000000000694,Ulises Kozey,33.347946791156794,-121.40405096267912
100000000000695,Malvina Turner,31.06199734057253,-75.71265699878573
100000000000696,Dewitt Buckridge,31.047335646884143,-115.66102422245244
100000000000697,Leif Balistreri,31.490835298888953,-122.83940557367283
100000000000698,Lauryn Bradtke,28.761288076978055,-110.28775979826342
100000000000699,Delilah Rolfson,34.71038707691641,-105.95380568067482
100000000000700,Lenna Larson,29.550476068249676,-89.48401619988738
100000000000701,Mack Padberg,37.120534293778576,-125.07201700105244
100000000000702,Ariane Grant,39.16386399016449,-93.92302320216632
100000000000703,Timmothy Runte,32.77878077577972,-96.76943017644489
100000000000704,Dillan Glover,41.131592686431816,-72.79997513555924
100000000000705,Chadrick Ferry,46.1168066628379,-73.5460552635694
100000000000706,Gianni Boyer,45.32722270385017,-104.85851173126596
100000000000707,Maci Littel,43.612843039209885,-88.15868898832021
100000000000708,Nedra Lemke,34.387889145071945,-77.71748814194197
100000000000709,Julie Haag,49.43992900286814,-117.81917212542798
100000000000710,Virgie Berge,27.964468654075773,-78.96587919311202
100000000000711,Julio Abbott,34.86609532214713,-82.51222826573708
100000000000712,Levi Dickens,35.674821353659695,-108.91160303045667
100000000000713,Kim Fay,29.520557743153308,-98.60898732433692
100000000000714,Alexzander Keeling,31.169208150910944,-77.52800806765524
100000000000715,Lolita Hirthe,41.76841010149285,-97.74373211188733
100000000000716,Adrain Thompson,31.580996468015353,-101.33320177750048
100000000000717,Ramiro Reynolds,46.05890318947442,-103.91084331014548
100000000000718,Cesar O'Conner,37.96441515907222,-79.29256968388944
100000000000719,Robin Towne,29.140043717401248,-94.9675747010411
100000000000720,Madisyn Farrell,31.80722753997511,-91.69621758170015
100000000000721,Alycia Considine,29.37211151683185,-110.29116204828058
100000000000722,Krystina Mayert,49.44692290651979,-124.86465480038612
100000000000723,Keara Pfeffer,39.48408687900293,-111.8961251550956
100000000000724,Louvenia Schroeder,35.87373108718398,-105.90396337030194
100000000000725,Yessenia Hegmann,33.29486186695728,-79.67277570490286
100000000000726,Rosamond McCullough,29.19686270100041,-110.66858391647764
100000000000727,Gloria Yost,42.16726084492463,-119.80654979125524
100000000000728,Elsa Swaniawski,30.003393945407865,-97.97930545742028
100000000000729,Gerson Tromp,43.86027834011648,-103.0465637404939
100000000000730,Bo Leuschke,47.36475004019383,-97.10789479445825
100000000000731,Bernard Watsica,46.43663172228923,-80.40214764639701
100000000000732,Lukas Bernhard,46.84722110221833,-104.03924209652284
100000000000733,Alexander Sporer,41.21428332875823,-123.53612855977904
100000000000734,Kayleigh Satterfield,38.646152924481,-74.61287415612452
100000000000735,Miles Jacobs,27.348109503269335,-96.75541613568288
100000000000736,Clarabelle Graham,48.47197018446345,-76.96213884963713
100000000000737,Bobby Konopelski,43.02283699102307,-80.93831368462693
100000000000738,Leanne Hegmann,38.032078403766576,-121.37811577712348
100000000000739,William Wunsch,42.17917691621566,-103.95031589291384
100000000000740,Asha Schumm,34.83525968960306,-75.5648673579469
100000000000741,Fredrick Pouros,30.20838759769734,-106.81717274012142
100000000000742,Isobel Wuckert,41.831423881697035,-93.12561208091373
100000000000743,Felipa Ratke,39.03554160395354,-123.69874684726844
100000000000744,Toy Flatley,40.411050308694776,-118.21358128712056
100000000000745,Samson Weimann,39.453050406203666,-111.97470261673088
100000000000746,Skyla Mante,27.505955135852833,-80.45265137498733
100000000000747,Katrina Wisoky,44.86582280585962,-67.92956634072479
100000000000748,Pearlie Funk,37.46963762575118,-85.34825617710814
100000000000749,Estelle Kling,32.396168585883785,-121.39154701879065
100000000000750,Karianne Erdman,35.637454882407425,-108.12866504107164
100000000000751,Gilda Waelchi,26.449149440712834,-91.60965963535064
100000000000752,Ethel Blanda,44.806035314504506,-105.85749220687768
100000000000753,Elaina Stroman,36.46179006625392,-88.20723168912806
100000000000754,Gennaro Weimann,48.3159648261874,-115.45151995814814
100000000000755,Broderick Kohler,27.5151674583149,-104.39123931436453
100000000000756,Arianna Brakus,47.16239045943534,-88.91191734670505
100000000000757,Diamond Zemlak,46.30608574506178,-106.76072859584204
100000000000758,Montana Wiza,31.35618008733187,-124.26312994049212
100000000000759,Okey Paucek,45.50604937099353,-107.54222401918088
100000000000760,Leonie Frami,43.04445709126307,-87.89124558593466
100000000000761,Sunny Buckridge,46.70805864249535,-81.86795203569244
100000000000762,Vivienne Padberg,32.23084173493449,-107.98904824511467
100000000000763,Chasity Ortiz,38.60800068714486,-99.76313070955943
100000000000764,Lea Skiles,34.76755537036651,-103.45292701706612
100000000000765,Amos Larson,47.485778080960415,-86.29845284707726
100000000000766,Georgiana Windler,40.968079413256014,-85.20164057257452
100000000000767,Samanta Waters,42.201904254800624,-78.01623675373075
100000000000768,Brett O'Connell,35.78662500083101,-95.47921374714907
100000000000769,Joan Hermann,43.648646726152634,-110.56857890571212
100000000000770,Madisen Strosin,38.612838456645434,-92.00540189069508
100000000000771,Evert Ferry,35.37228130768686,-119.80314056315912
100000000000772,William Hoeger,32.264896395217995,-109.30620493276194
100000000000773,Noe Hane,35.346184571749994,-98.95831175460032
100000000000774,Cary Leuschke,45.29690529315825,-89.34395770800175
100000000000775,Annabelle Rutherford,46.894750966317034,-79.17082774696055
100000000000776,Ross Heathcote,38.059760822926286,-102.58454457808908
100000000000777,Amir Kuhn,29.64375907745664,-91.16768458507109
100000000000778,Aurelie Shields,48.268805894810434,-91.55438252066696
100000000000779,Donavon Shanahan,35.28505442107135,-117.03162343046549
100000000000780,Melisa Tillman,26.641569387340912,-125.26393992809624
100000000000781,Roscoe Miller,29.425363673101895,-102.3630678382166
100000000000782,Lambert Strosin,31.874584745922245,-79.6299092602417
100000000000783,Lloyd Cole,26.78385003291292,-85.16178685877611
100000000000784,Charity Sipes,34.25976464035618,-121.32829904283716
100000000000785,Harry Davis,26.857485288928228,-90.84622296470587
100000000000786,Minnie Purdy,35.53029796733772,-95.16948442902904
100000000000787,Narciso Walsh,28.125204403526983,-92.8770792765132
100000000000788,Natasha Collins,34.005208365380106,-123.86644643044993
100000000000789,Brice Hodkiewicz,40.346277009782895,-108.05621903224628
100000000000790,Else Kovacek,48.53778281337985,-119.43381523822713
100000000000791,Conner Herman,39.59800755047803,-87.22481610241542
100000000000792,Foster Ankunding,25.0925895634116,-93.3124214154998
100000000000793,Lavonne Gottlieb,45.13935897796782,-70.60836167366449
100000000000794,Thora Kirlin,37.67929997790009,-85.82047607964898
100000000000795,Omer Senger,32.57089279768875,-74.74080440707968
100000000000796,Eduardo Grady,40.87064469442795,-89.37108721398839
100000000000797,Walker Prohaska,41.60493274378977,-74.19212389436817
100000000000798,Corine Lockman,44.289690585291886,-117.569381959767
100000000000799,Summer Sawayn,40.135799993638784,-106.04457679519616
100000000000800,Narciso Shields,49.66932528469642,-73.0632791395955
100000000000801,Santino Gerhold,33.96241557402692,-104.73304396695306
100000000000802,Osvaldo Swift,42.762832034855506,-107.50843027632028
100000000000803,Cale Kohler,33.755487931281365,-86.01882940298051
100000000000804,Ariel Lakin,29.246868882655075,-83.94631767817815
100000000000805,Ava Rath,38.55471584043215,-110.2043520527044
100000000000806,Marcel Rau,25.88083596357485,-76.54910819344741
100000000000807,Sarina Hahn,28.73792804963643,-75.13365800399271
100000000000808,Drake Fay,46.32243608779672,-91.7654199300164
100000000000809,Edward Hudson,30.699260425735577,-88.88625712179854
100000000000810,Ezequiel Miller,39.16610345858827,-125.16544121676874
100000000000811,Howell Bergnaum,49.922100982437485,-84.73118608561526
100000000000812,Alejandra Sanford,48.549874164617975,-83.73355224796687
100000000000813,Augusta Simonis,36.67572304257002,-111.52092096376477
100000000000814,Doris Kovacek,45.37612799117043,-100.73713730698626
100000000000815,Elvis Nader,36.46088129046296,-111.03411816803562
100000000000816,Missouri Kohler,43.35541359353265,-90.25214689283136
100000000000817,Sebastian Stroman,49.882887557613,-122.75487245108496
100000000000818,Camylle Deckow,31.56627716856761,-101.41813722549384
100000000000819,Queenie Sipes,37.037151283994945,-69.74524487268539
100000000000820,Felipa Murphy,40.694309143866576,-117.14989704136356
100000000000821,Virgie Padberg,33.472119270392824,-90.63952750604018
100000000000822,Trisha Maggio,49.88151910068629,-70.62086840003718
100000000000823,Sherman Bauch,33.956668811703565,-76.67420340751796
100000000000824,Rose Braun,30.51268670726549,-114.4590608562172
100000000000825,Jordon Dickinson,48.27672330538693,-89.19872923956397
100000000000826,Xander Oberbrunner,41.555682556321905,-83.00073487982883
100000000000827,Kobe Hammes,27.602164180567485,-104.3432578830452
100000000000828,Troy Hilpert,37.02455406105838,-89.61669016930838
100000000000829,Antonina Schmitt,47.38193011420864,-97.811797084464
100000000000830,Adrianna Crona,43.93324778652921,-82.48568299508733
100000000000831,Chance Stroman,41.06786669597332,-112.85981903694385
100000000000832,Everett Eichmann,25.94024726440348,-110.1956841179718
100000000000833,Margret Wuckert,33.703821744503244,-73.8164155213983
100000000000834,Pasquale Nitzsche,37.50412067697075,-109.7840686377459
100000000000835,Courtney Pfeffer,28.708380490036394,-103.94409924623304
100000000000836,Destini Farrell,42.574529233008334,-105.8062297034236
100000000000837,Aiden Littel,48.78283497047181,-86.63910252627792
100000000000838,Joe Lynch,33.66112888412629,-100.6764989067193
100000000000839,Fern Runolfsdottir,44.45122968456402,-123.62018838378997
100000000000840,Arthur Davis,34.620633427853406,-104.39015612444676
100000000000841,Baron King,44.34326883767718,-73.73184977620488
100000000000842,Anastacio Ruecker,28.099068934410827,-94.89107482093006
100000000000843,Lemuel Pfannerstill,45.89528023893675,-72.62106129433062
100000000000844,Marlene Bins,41.1765214147499,-67.92275756897172
100000000000845,Davin Sauer,36.02515528152162,-106.66681747698571
100000000000846,Dino Sipes,34.67557335017192,-90.47954527341314
100000000000847,Alicia Will,45.93757078105884,-115.6266067429679
100000000000848,Camila Price,33.27946036246631,-107.67711516046477
100000000000849,Antonio Hand,35.24599048550248,-104.11259828577
100000000000850,Anita Kutch,45.97456167370136,-77.00438443466587
100000000000851,Arnold Spinka,49.50518982434851,-86.32885922745356
100000000000852,Bella Bergstrom,42.13262034836761,-110.20809469685553
100000000000853,Ezekiel Collier,43.06217833465334,-96.6131108986324
100000000000854,Salma Schinner,49.85411015354928,-92.57645449660744
100000000000855,Gail Bartoletti,48.7195549153172,-82.69966834660033
100000000000856,Christa Haag,40.338901218083066,-112.77245759125049
100000000000857,Kian Kilback,29.087584386805393,-85.77282432592628
100000000000858,Juliana Pacocha,46.863804876339216,-91.25036894600984
100000000000859,Jason Fisher,40.5967601870105,-81.88756134984251
100000000000860,Savannah Lynch,36.50056261756457,-80.4629406487153
100000000000861,Jace Zboncak,26.325073418682216,-79.9760940328674
100000000000862,Alexandro Collier,44.9792587546704,-86.21600163522425
100000000000863,Anahi Schmeler,43.27004191780276,-93.94116227196042
100000000000864,Colton Wilderman,47.59169447065419,-80.54910151694946
100000000000865,Mohammad Prosacco,25.09614852905327,-86.2266623146182
100000000000866,Rylee Hackett,29.00669710821852,-110.1011241956836
100000000000867,Sydni Jones,28.06230451376367,-94.64147919122551
100000000000868,Vivien Schoen,30.362278554010825,-95.8268659627194
100000000000869,Jennifer Bernhard,48.40185061834859,-113.45306413261817
100000000000870,Sadie Orn,32.5810251484729,-116.68668877236576
100000000000871,Lori Beer,48.62908984308402,-88.16847154471385
100000000000872,Virgie Bednar,25.11475705261596,-108.10366412403842
100000000000873,Keshaun McGlynn,49.17914708258037,-73.79760167879428
100000000000874,Erwin Mills,34.561955762596455,-107.35912338326206
100000000000875,Amir Mayer,30.293196390480297,-119.94837250038194
100000000000876,Moshe O'Hara,38.676117487663966,-71.75031419961411
100000000000877,Brennon Rice,27.823070819156083,-84.98746330454267
100000000000878,Johan Becker,30.134246496072222,-112.1621039830162
100000000000879,Abdul Stamm,30.010356379977544,-123.19492975853277
100000000000880,Jayce Runte,43.33962867497678,-121.84739847002665
100000000000881,Mary Kiehn,44.62149980390229,-118.13701653539528
100000000000882,Shany Rodriguez,32.70008710630126,-70.69320037688917
100000000000883,Orville Boehm,27.39808854297121,-103.90133724400356
100000000000884,Terrence McClure,49.42648704238297,-86.81100178022564
100000000000885,Luis Crona,32.72421429578229,-93.99560469135076
100000000000886,Paula Gerhold,47.27874709489524,-96.610454490766
100000000000887,Vincenzo Deckow,32.41191271429744,-71.10729999558691
100000000000888,Justus King,31.78428457509233,-83.35332302249712
100000000000889,Hassan Braun,48.90412743373169,-97.70544088466444
100000000000890,Rosetta Beier,32.218225420354635,-111.03871387077994
100000000000891,Chester Mayert,27.526734456121332,-121.19412972059617
100000000000892,Darius Will,33.09063250984413,-83.64742224425675
100000000000893,Isai Tromp,28.96815460734556,-85.46963015467352
100000000000894,Telly Renner,31.956921561786388,-121.56437382780024
100000000000895,Hazel Beier,31.096777209578477,-79.58781920691885
100000000000896,Elijah Wehner,25.970335492450964,-121.57434785960474
100000000000897,Blaise Bergstrom,37.47711445445818,-89.58905925680497
100000000000898,Keagan Daugherty,43.974881897411066,-68.60982685460135
100000000000899,Lee Crooks,26.59535768742898,-79.08680036290833
100000000000900,Leonard Powlowski,34.38590295023391,-97.60065338661585
100000000000901,Quinn Herzog,37.06127026658616,-119.30894131959867
100000000000902,Timmy Kreiger,29.338155760353963,-96.37123351125564
100000000000903,Raleigh Hills,29.290198361165153,-80.56388200877385
100000000000904,Rosalinda Heidenreich,39.29179777431344,-125.72890635835915
100000000000905,King Ziemann,30.31700099282736,-67.02802590786467
100000000000906,Simone Runolfsdottir,38.476232626227585,-69.49742503257633
100000000000907,Nya Rolfson,32.04114548658869,-120.26431765433716
100000000000908,Kaitlyn Harvey,43.51404465390873,-87.42927530130794
100000000000909,Nicolas Cruickshank,41.5370761315435,-125.40294745415808
100000000000910,Cordell Monahan,40.644544442546184,-69.58892888309114
100000000000911,Katrina Schaefer,28.559268211817855,-77.09108779609926
100000000000912,Karelle Wolff,39.22281450663587,-94.11355689815925
100000000000913,Dominic Carroll,31.796672203735532,-92.33892318363782
100000000000914,Liza Daugherty,38.65046452207635,-87.98642272996142
100000000000915,Gerson Schumm,40.278841056428455,-82.03690406573898
100000000000916,Jedidiah Miller,49.36661071014977,-77.49803335656145
100000000000917,Amelie Kozey,44.49144913022644,-95.87138526358612
100000000000918,Selena Quitzon,41.3322454017046,-74.79363172770339
100000000000919,Frank Jast,38.20539538099597,-69.4670664269403
100000000000920,Marquise Kris,30.361349042659334,-120.4539449901582
100000000000921,Leonie Kuphal,28.64963541090127,-70.08027947672939
100000000000922,Leo Jast,41.780099500274666,-91.64583021765452
100000000000923,Donnie Runolfsdottir,35.91330147659494,-99.80355850901525
100000000000924,Perry Hand,34.24723606948065,-112.47299200193608
100000000000925,Delores Bailey,44.77210430116324,-120.65503232219268
100000000000926,Sister Carroll,33.761190135044714,-79.14303651127602
100000000000927,Maye Kunde,33.838069556129746,-79.3613107097434
100000000000928,Joana Mills,40.00322829301169,-125.27269315670232
100000000000929,Carli Balistreri,30.34841554959552,-122.96176176602032
100000000000930,Consuelo Kilback,44.70570114783016,-83.42681097141647
100000000000931,Amie Reilly,34.26096364769559,-72.42750183641584
100000000000932,Dolores Kris,32.210589529773024,-96.379527377425
100000000000933,Cathrine Rau,43.4589883024441,-98.4555719175156
100000000000934,Danyka Bernier,26.558228613413032,-78.66762966477535
100000000000935,Cleora Hoppe,27.533560184979443,-89.83495049827468
100000000000936,Claire Grimes,39.74946417763508,-118.73683845208114
100000000000937,Isabella Dicki,30.035273567431087,-94.12238526165936
100000000000938,Flavie Eichmann,48.38847634881595,-111.52540361614082
100000000000939,Deshaun Boyer,45.844789546875006,-124.020334821267
100000000000940,Keara Gulgowski,44.71542422333825,-98.73819482905331
100000000000941,Eleazar Schuster,36.03948457978298,-118.85907323995136
100000000000942,Elinor Sawayn,33.888713511721846,-106.681354076835
100000000000943,Ollie Cummerata,36.32101433137812,-93.5472473587226
100000000000944,Delaney Cummings,44.41268792833354,-98.91825674390428
100000000000945,Hillary Stracke,46.460881262704945,-107.64705637143138
100000000000946,Shaun Rohan,45.03537802514785,-87.30527523141402
100000000000947,Jamel Beier,26.143666022209587,-106.09497025729516
100000000000948,Carlotta Botsford,38.9961366469244,-81.9046265614335
100000000000949,Jovani Kuhlman,46.25600109509904,-121.20124424122876
100000000000950,Verlie Kessler,39.67615995077922,-93.7707401633362
100000000000951,Judd Okuneva,42.71256145912102,-75.10280569037951
100000000000952,Dashawn Mohr,48.69154838399482,-70.00170526613779
100000000000953,Twila Pagac,25.612677960451407,-92.7691211496687
100000000000954,Kira Hagenes,27.744338324152142,-103.87999848750334
100000000000955,Monte Effertz,40.793406964106765,-117.009506309979
100000000000956,Rahul Klein,46.73288748278111,-108.4661540091145
100000000000957,Roslyn Kreiger,39.92549069026516,-102.48886190317882
100000000000958,Bernita Deckow,25.51674928455729,-77.63567103563392
100000000000959,Beth Oberbrunner,31.83765383075455,-99.33111942444312
100000000000960,Tessie Yost,32.78109228055998,-88.13706398562172
100000000000961,Malika Marvin,39.26709716151792,-80.87949165255108
100000000000962,Milo Kessler,35.17208578879671,-99.10080097558728
100000000000963,Trycia Batz,38.075779952946185,-124.40176825540055
100000000000964,Gay Jones,41.04821969280937,-73.7432435363886
100000000000965,Abdul Kessler,39.559700753695886,-125.24551407750492
100000000000966,Karen Hansen,32.94978234980614,-112.6011259120878
100000000000967,Mara Rutherford,44.332381398841406,-94.6637043574064
100000000000968,Jett Kohler,39.29810089664754,-121.05337276078076
100000000000969,Delmer Lind,30.312092239021727,-75.20407799098214
100000000000970,Orland Rowe,32.931988592198266,-90.58464843786432
100000000000971,Ali Ortiz,36.60698275166585,-78.08843515636019
100000000000972,Emanuel Rempel,30.979200286022667,-112.97983814636532
100000000000973,Hayden Schultz,36.03763818211514,-100.37003644575164
100000000000974,Lorine Olson,41.99085716424532,-125.3517606049542
100000000000975,Raleigh Yost,44.15471071462005,-78.4654059844807
100000000000976,Hans Reilly,31.158591145491176,-89.92857176392698
100000000000977,Elliott Collins,32.56195187825841,-114.9799999531098
100000000000978,Florence Lemke,41.10585189654931,-93.72933895167104
100000000000979,Ahmed Jacobson,43.73966863774846,-69.08728835626101
100000000000980,Bessie Bartell,36.48652717355778,-104.68404823412072
100000000000981,Alvis Torphy,48.22743029182777,-95.265130013529
100000000000982,Macey Hyatt,46.89463180099084,-99.18124843261177
100000000000983,Dianna Halvorson,25.192100484488545,-117.6277266227802
100000000000984,Stacy Jerde,34.742586999128584,-68.74614481191418
100000000000985,Karli Smith,31.18843670112794,-76.27269674670862
100000000000986,Jaeden Gusikowski,26.27420674670702,-84.53800478813639
100000000000987,Aditya Parker,29.181236502581925,-122.93728108141951
100000000000988,Mylene O'Conner,48.315458178613355,-71.12421503080765
100000000000989,Juliana Barton,27.374956674343153,-110.98613955002924
100000000000990,Dell Wiegand,40.25018978269422,-81.81800690170559
100000000000991,Jeremie Schuster,47.44346138390315,-96.8308440677596
100000000000992,Idell Zieme,36.99858882223121,-118.0098364920822
100000000000993,Bridie Mayer,29.863766444386822,-69.44025782044773
100000000000994,Pinkie Kunze,26.35185265948275,-114.23507172736856
100000000000995,Lois Fadel,46.22092764495128,-111.30016984720608
100000000000996,Reanna Blanda,48.83840639277109,-87.10078936994191
100000000000997,Stephania Gerlach,30.870339491197452,-81.42829867778107
100000000000998,Olga Funk,33.05908213698655,-108.2999662058982
100000000000999,Milo Rodriguez,29.54309379957324,-104.36477112736372
